City,Lat,Lng,Max Temp,Humidity,Cloudiness,Wind Speed,Country,Date
Kahului,20.8947,-156.47,295.15,78,90,6.17,US,1616020690
Punta Arenas,-53.15,-70.9167,284.15,66,75,9.77,CL,1616020690
Ilhabela,-23.7781,-45.3581,298.45,84,51,2.24,BR,1616020690
São Filipe,14.8961,-24.4956,295.28,74,1,3.23,CV,1616020690
Saskylakh,71.9167,114.0833,246.15,95,100,3.52,RU,1616020691
Nanortalik,60.1432,-45.2371,274.66,83,93,6.43,GL,1616020691
Rikitea,-23.1203,-134.9692,299.7,73,100,5.72,PF,1616020691
Cabo San Lucas,22.8909,-109.9124,296.15,56,1,3.09,MX,1616020601
Qasigiannguit,68.8193,-51.1922,265.15,86,75,9.77,GL,1616020692
Mossamedes,-15.1961,12.1522,297.29,73,90,2.11,AO,1616020692
Ushuaia,-54.8,-68.3,287.15,58,75,4.63,AR,1616020692
Atar,20.5169,-13.0499,297.34,11,0,3.09,MR,1616020693
Yaan,7.3833,8.5667,300.92,62,21,6.58,NG,1616020693
Port Alfred,-33.5906,26.891,294.34,91,37,5.11,ZA,1616020693
Mahébourg,-20.4081,57.7,298.15,78,40,3.09,MU,1616020693
Bay Roberts,47.5999,-53.2648,269.82,66,85,1.79,CA,1616020694
Barrow,71.2906,-156.7887,254.15,71,1,5.14,US,1616020694
Puerto Ayora,-0.7393,-90.3518,301.15,74,20,3.6,EC,1616020694
Quatre Cocos,-20.2078,57.7625,298.15,78,40,3.09,MU,1616020695
Jamestown,42.097,-79.2353,287.15,35,1,1.27,US,1616020641
San Quintín,30.4833,-115.95,288.86,63,0,7.31,MX,1616020695
Campina Verde,-19.5356,-49.4864,296.67,77,45,1.49,BR,1616020696
Albany,42.6001,-73.9662,280.93,52,39,0.45,US,1616020496
Khandyga,62.6667,135.6,262.02,94,100,2.54,RU,1616020696
New Norfolk,-42.7826,147.0587,288.71,62,0,1.28,AU,1616020696
Āsosa,10.0667,34.5333,293.54,48,74,0.93,ET,1616020697
Qaanaaq,77.484,-69.3632,249.19,95,90,2.24,GL,1616020697
Dikson,73.5069,80.5464,247.55,97,100,4.26,RU,1616020697
Hilo,19.7297,-155.09,299.15,61,75,7.2,US,1616020581
Cherskiy,68.75,161.3,249.45,85,0,2.27,RU,1616020698
Hamamatsu,34.7,137.7333,284.82,65,31,2.24,JP,1616020698
Hobart,-42.8794,147.3294,288.71,76,20,3.6,AU,1616020698
Aklavik,68.2191,-135.0107,257.15,51,0,2.57,CA,1616020699
Busselton,-33.65,115.3333,290.14,88,0,4.01,AU,1616020699
Santiago,-33.4569,-70.6483,296.15,40,40,2.06,CL,1616020457
General Roca,-39.0333,-67.5833,288.15,51,0,1.54,AR,1616020693
Chișinău,47.0056,28.8575,277.15,87,90,7.2,MD,1616020700
Cape Town,-33.9258,18.4232,292.15,82,0,1.03,ZA,1616020700
Ryōtsu-minato,38.0833,138.4333,280.15,70,75,6.17,JP,1616020700
Hermanus,-34.4187,19.2345,292.59,81,18,3.13,ZA,1616020700
Helong,42.5397,128.9972,272.19,46,48,1.4,CN,1616020701
Ozar,20.1,73.9333,295.23,31,2,3.04,IN,1616020701
Tasiilaq,65.6145,-37.6368,274.94,96,99,8.46,GL,1616020701
Acapulco de Juárez,16.8634,-99.8901,301.15,69,75,4.63,MX,1616020633
Arrondissement de Gourdon,44.75,1.5,277.59,82,100,4.02,FR,1616020702
Touros,-5.1989,-35.4608,300.15,78,20,4.12,BR,1616020629
Guajará,-2.9667,-57.6667,298.96,85,50,0.23,BR,1616020702
Chokurdakh,70.6333,147.9167,250.55,86,100,2.82,RU,1616020703
Rupert,42.6191,-113.6772,289.15,27,90,4.12,US,1616020703
Westport,41.1415,-73.3579,279.26,75,90,1.54,US,1616020703
Aykhal,66.0,111.5,242.31,93,16,4.57,RU,1616020704
Kumba,4.6363,9.4469,295.29,90,100,1.19,CM,1616020704
Manoel Urbano,-8.8389,-69.2597,300.64,67,3,1.24,BR,1616020704
Saint George,37.1041,-113.5841,290.37,44,1,0.48,US,1616020476
Esperance,-33.8667,121.9,291.15,48,0,7.72,AU,1616020705
Aldan,58.6031,125.3894,261.59,95,100,2.18,RU,1616020705
Hambantota,6.1241,81.1185,298.05,78,99,6.17,LK,1616020705
Saint Paul Harbor,57.79,-152.4072,273.15,43,1,4.12,US,1616020705
Vaitape,-16.5167,-151.75,301.24,70,38,4.39,PF,1616020706
Bukachacha,52.9833,116.9167,258.72,91,39,0.98,RU,1616020706
Los Llanos de Aridane,28.6585,-17.9182,291.15,68,0,5.14,ES,1616020706
Trojes,41.756,19.962,276.15,87,0,1.54,AL,1616020707
Des Moines,41.6005,-93.6091,277.04,87,90,6.17,US,1616020598
Andenes,69.3143,16.1194,270.15,63,90,5.14,NO,1616020707
Carnarvon,-24.8667,113.6333,299.15,78,0,4.63,AU,1616020707
Airai,-8.9266,125.4092,288.32,92,100,0.1,TL,1616020708
Khatanga,71.9667,102.5,237.52,92,75,1.94,RU,1616020708
Muros,42.7762,-9.0603,286.48,53,20,2.24,ES,1616020708
Kapaa,22.0752,-159.319,297.15,53,1,8.23,US,1616020708
Mandurah,-32.55,115.7,292.04,86,20,4.35,AU,1616020590
Nikolskoye,59.7035,30.7861,273.15,93,75,2.0,RU,1616020709
Calbuco,-41.768,-73.1273,295.15,35,0,1.54,CL,1616020709
Kruisfontein,-34.0033,24.7314,292.04,95,27,0.89,ZA,1616020710
Lüderitz,-26.6481,15.1594,290.07,88,0,4.18,NA,1616020710
Colares,38.7992,-9.4469,291.48,51,0,2.57,PT,1616020710
Hithadhoo,-0.6,73.0833,301.55,65,57,0.62,MV,1616020710
Xai-Xai,-25.0519,33.6442,295.75,91,45,3.11,MZ,1616020711
Poum,-20.2333,164.0167,300.45,74,31,6.92,NC,1616020711
Eureka,40.8021,-124.1637,287.04,58,79,3.58,US,1616020639
Ukiah,39.1502,-123.2078,288.15,44,1,7.2,US,1616020712
Bluff,-46.6,168.3333,287.04,75,3,1.34,NZ,1616020712
Castro,-24.7911,-50.0119,292.13,96,100,1.42,BR,1616020712
Mar del Plata,-38.0023,-57.5575,288.71,72,90,8.75,AR,1616020452
Vaini,-21.2,-175.2,302.15,70,20,2.57,TO,1616020713
Miramar,25.9873,-80.2323,300.93,61,1,6.17,US,1616020713
Abū Zabad,12.35,29.25,299.4,23,68,3.1,SD,1616020713
Geraldton,-28.7667,114.6,292.15,88,0,2.57,AU,1616020714
Beloha,-25.1667,45.05,295.29,80,0,3.39,MG,1616020714
Anloga,5.7947,0.8973,300.15,74,20,2.57,GH,1616020714
Korla,41.7597,86.1469,277.51,63,99,9.7,CN,1616020714
Tabas,33.5959,56.9244,294.99,23,100,3.06,IR,1616020715
Bilibino,68.0546,166.4372,247.94,89,0,0.87,RU,1616020715
Ancud,-41.8697,-73.8203,292.15,42,0,3.6,CL,1616020715
Butaritari,3.0707,172.7902,300.14,78,36,5.49,KI,1616020716
Turki,51.987,43.2731,269.11,97,99,2.25,RU,1616020716
Bambous Virieux,-20.3428,57.7575,298.15,78,40,3.09,MU,1616020716
East London,-33.0153,27.9116,295.17,82,94,2.72,ZA,1616020717
Adrar,20.5022,-10.0711,295.99,11,5,3.87,MR,1616020717
Bengkulu,-3.8004,102.2655,297.31,87,100,2.46,ID,1616020717
Miraflores,19.2167,-98.8083,300.15,17,40,2.57,MX,1616020718
Kiunga,-6.1219,141.2906,298.11,95,87,0.42,PG,1616020718
Consett,54.854,-1.8316,277.59,81,20,2.57,GB,1616020718
Souillac,-20.5167,57.5167,298.15,78,40,3.09,MU,1616020719
Lorengau,-2.0226,147.2712,301.79,73,64,1.3,PG,1616020719
Grevesmühlen,53.8667,11.1833,275.37,93,88,1.79,DE,1616020719
Hasaki,35.7333,140.8333,280.37,61,20,3.09,JP,1616020720
Ahipara,-35.1667,173.1667,294.59,58,2,5.0,NZ,1616020720
Iqaluit,63.7506,-68.5145,250.37,70,75,1.03,CA,1616020720
Nome,64.5011,-165.4064,260.15,61,1,4.12,US,1616020457
Port Hardy,50.6996,-127.4199,282.15,71,75,4.63,CA,1616020721
Atuona,-9.8,-139.0333,300.11,75,43,4.91,PF,1616020721
Thompson,55.7435,-97.8558,270.15,28,20,1.54,CA,1616020721
Sebastian,35.1668,-94.2669,296.15,33,20,11.32,US,1616020722
Pacific Grove,36.6177,-121.9166,285.15,66,90,4.12,US,1616020722
Avarua,-21.2078,-159.775,301.15,74,40,4.12,CK,1616020722
Pevek,69.7008,170.3133,244.22,95,85,1.36,RU,1616020722
Kavieng,-2.5744,150.7967,302.29,66,72,3.19,PG,1616020723
São João da Barra,-21.6403,-41.0511,300.15,69,0,8.23,BR,1616020520
Eenhana,-17.4667,16.3333,292.85,78,13,1.69,NA,1616020723
Tegul'det,57.3064,88.1667,261.56,91,95,3.9,RU,1616020723
Srednekolymsk,67.45,153.6833,254.2,72,0,1.46,RU,1616020724
Smithers,54.7804,-127.1743,280.15,45,90,3.6,CA,1616020724
Severo-Kuril'sk,50.6789,156.125,273.53,98,100,2.44,RU,1616020724
Pelym,61.0108,61.9978,266.12,93,64,2.52,RU,1616020725
Isabela,6.7085,121.9711,297.15,94,20,0.51,PH,1616020725
Talnakh,69.4865,88.3972,253.88,99,100,0.36,RU,1616020725
Port Keats,-14.25,129.55,298.66,87,100,3.6,AU,1616020726
Brae,60.3964,-1.353,280.15,93,75,3.09,GB,1616020726
Ponta do Sol,32.6667,-17.1,290.37,63,20,6.69,PT,1616020726
Amurzet,47.6967,131.0981,268.76,68,1,3.76,RU,1616020726
Safonovo,55.15,33.2167,270.34,95,88,1.3,RU,1616020727
Imbituba,-28.24,-48.6703,300.15,83,40,5.66,BR,1616020543
Nurota,40.5614,65.6886,279.15,61,7,11.32,UZ,1616020727
Marsá Maţrūḩ,31.3525,27.2453,284.15,76,0,2.57,EG,1616020727
Le Mars,42.7942,-96.1656,275.93,87,90,7.72,US,1616020538
Lebu,-37.6167,-73.65,286.69,80,0,2.0,CL,1616020728
Paamiut,61.994,-49.6678,268.38,95,100,9.65,GL,1616020728
Maraã,-1.8333,-65.3667,297.11,91,98,0.92,BR,1616020728
Benīganj,27.2833,80.45,294.46,29,42,1.47,IN,1616020729
Dudinka,69.4058,86.1778,249.27,97,100,5.62,RU,1616020729
Port Blair,11.6667,92.75,297.15,88,20,1.09,IN,1616020729
Astoria,46.1879,-123.8313,284.15,62,1,6.17,US,1616020730
Bredasdorp,-34.5322,20.0403,288.15,94,28,2.57,ZA,1616020730
Cockburn Town,21.4612,-71.1419,296.57,77,0,8.62,TC,1616020730
Coquimbo,-29.9533,-71.3436,291.15,77,0,5.66,CL,1616020458
Tautira,-17.7333,-149.15,304.15,58,75,3.6,PF,1616020731
Chui,-33.6971,-53.4616,292.97,79,51,6.29,UY,1616020731
Tiksi,71.6872,128.8694,234.23,96,76,3.98,RU,1616020731
Riyadh,24.6877,46.7219,301.15,21,20,2.06,SA,1616020704
Tiznit Province,29.5833,-9.5,289.24,68,2,1.06,MA,1616020732
Fort Nelson,58.8053,-122.7002,283.15,34,75,1.54,CA,1616020732
Erenhot,43.6475,111.9767,271.1,40,34,5.31,CN,1616020732
Tuktoyaktuk,69.4541,-133.0374,248.15,84,20,2.06,CA,1616020733
Ribeira Grande,38.5167,-28.7,289.15,82,40,7.72,PT,1616020733
Santa Cruz de la Sierra,-17.8,-63.1667,297.15,88,90,2.57,BO,1616020733
Cayenne,4.9333,-52.3333,299.82,78,95,2.06,GF,1616020734
Itakyry,-24.9333,-55.2167,297.15,83,75,0.74,PY,1616020734
Bathsheba,13.2167,-59.5167,299.15,61,20,5.66,BB,1616020734
Togur,58.3631,82.8265,263.77,93,100,4.19,RU,1616020735
Auki,-8.7676,160.7034,303.12,65,71,1.64,SB,1616020735
Nouadhibou,20.931,-17.0347,291.35,78,0,9.06,MR,1616020654
Saint-Philippe,-21.3585,55.7679,298.15,64,0,3.09,RE,1616020735
Nānpāra,27.8667,81.5,292.31,28,81,1.24,IN,1616020736
George Town,5.4112,100.3354,300.15,83,20,1.54,MY,1616020736
Iguape,-24.7081,-47.5553,298.6,86,93,4.33,BR,1616020736
Kupang,-10.1667,123.5833,297.15,100,75,1.03,ID,1616020736
Toyooka,35.5333,134.8333,275.15,87,20,3.09,JP,1616020737
Marawi,7.9986,124.2928,296.48,91,7,2.68,PH,1616020737
Faanui,-16.4833,-151.75,301.23,70,36,4.47,PF,1616020737
Paternion,46.7142,13.6361,273.15,79,34,1.97,AT,1616020738
Kaitangata,-46.2817,169.8464,287.04,64,3,2.24,NZ,1616020738
São José da Coroa Grande,-8.8978,-35.1478,298.95,74,3,3.05,BR,1616020738
Krasnosel'kup,65.7,82.4667,264.17,95,100,5.01,RU,1616020738
Bethel,41.3712,-73.414,281.15,61,90,2.06,US,1616020676
Alta Floresta,-9.8756,-56.0861,297.15,93,99,0.78,BR,1616020739
Mataura,-46.1927,168.8643,287.04,75,1,1.34,NZ,1616020739
Synevyr,48.4875,23.6258,276.48,72,100,0.89,UA,1616020739
Sandy Bay,-42.913,147.3532,288.71,76,20,3.6,AU,1616020740
Boddam,57.4667,-1.7833,280.37,87,20,3.09,GB,1616020740
Lagoa,39.05,-27.9833,287.94,83,90,9.57,PT,1616020741
Saldanha,-33.0117,17.9442,290.15,82,0,0.51,ZA,1616020741
Florø,61.5996,5.0328,276.15,87,75,1.87,NO,1616020741
Ambilobe,-13.2,49.05,296.5,94,100,0.77,MG,1616020741
Nicoya,10.1483,-85.452,305.15,43,40,5.66,CR,1616020468
São Pedro do Sul,-29.6206,-54.1789,297.15,73,75,4.63,BR,1616020742
Leningradskiy,69.3833,178.4167,249.46,85,57,5.43,RU,1616020742
Solnechnyy,50.7214,136.6319,266.48,64,100,0.65,RU,1616020742
Kosa,59.9445,54.9977,266.92,94,100,3.38,RU,1616020743
Alofi,-19.0595,-169.9187,302.15,74,75,4.63,NU,1616020743
Ayní,39.3941,68.5377,273.78,71,0,3.12,TJ,1616020743
Hong Kong,22.2855,114.1577,297.04,90,48,5.0,HK,1616020744
Diu,20.7141,70.9822,298.79,33,19,4.48,IN,1616020744
Rovaniemi,66.5,25.7167,262.15,67,0,4.63,FI,1616020744
Provideniya,64.3833,-173.3,255.15,65,0,6.0,RU,1616020745
Mancherial,18.8667,79.4333,295.54,62,22,2.63,IN,1616020745
Bulgan,48.8125,103.5347,263.13,89,96,2.59,MN,1616020745
Zaragoza,41.6561,-0.8773,283.15,57,0,10.8,ES,1616020563
Constitución,-35.3333,-72.4167,287.46,85,8,1.95,CL,1616020746
Issia,6.4922,-6.5856,295.7,93,88,4.34,CI,1616020746
Diapaga,12.0708,1.7889,305.07,28,97,1.59,BF,1616020683
Praia da Vitória,38.7333,-27.0667,288.15,77,75,5.78,PT,1616020747
Batagay,67.6333,134.6333,244.15,87,87,2.05,RU,1616020747
Heihe,50.2441,127.4902,262.15,73,20,2.0,CN,1616020747
Port Elizabeth,-33.918,25.5701,293.15,94,90,2.06,ZA,1616020748
Ol'ga,43.7444,135.2892,273.36,59,0,3.62,RU,1616020748
Yārāda,17.65,83.2667,298.01,72,40,2.82,IN,1616020748
Panjāb,34.388,67.0233,267.18,71,0,0.85,AF,1616020748
Katima Mulilo,-17.5,24.2667,292.38,86,15,1.62,NA,1616020749
Takoradze,4.8845,-1.7554,300.24,81,100,4.67,GH,1616020632
Arman',59.7,150.1667,258.15,66,0,3.82,RU,1616020749
Lar,26.2039,83.9717,293.07,30,0,1.88,IN,1616020749
Morro Bay,35.3658,-120.8499,287.04,74,47,2.24,US,1616020750
Sitka,57.0531,-135.33,277.15,81,90,14.92,US,1616020750
Brodokalmak,55.5748,62.082,264.15,67,0,1.0,RU,1616020750
Faya,18.3851,42.4509,290.15,82,0,1.16,SA,1616020751
Yellowknife,62.456,-114.3525,267.15,58,40,3.09,CA,1616020751
Chërnaya Kholunitsa,58.8511,51.7154,264.68,92,100,3.19,RU,1616020751
Nishihara,26.1842,127.7558,294.15,88,40,1.54,JP,1616020751
Manggar,-2.8833,108.2667,299.05,83,99,1.61,ID,1616020752
Arraial do Cabo,-22.9661,-42.0278,299.15,83,20,7.72,BR,1616020752
Anadyr,64.75,177.4833,249.26,64,0,5.0,RU,1616020752
Longyearbyen,78.2186,15.6401,255.15,60,0,2.57,SJ,1616020753
Grindavik,63.8424,-22.4338,279.15,100,90,8.75,IS,1616020753
Richards Bay,-28.783,32.0377,296.02,95,87,2.06,ZA,1616020753
Honningsvåg,70.9821,25.9704,270.69,61,100,10.54,NO,1616020754
Saint-Joseph,-21.3667,55.6167,296.15,64,0,3.09,RE,1616020754
Klyuchi,52.2667,79.1667,263.97,85,100,5.74,RU,1616020754
George,-33.963,22.4617,291.15,94,75,2.06,ZA,1616020755
Barguzin,53.6167,109.6167,258.42,88,70,1.18,RU,1616020755
Barra Patuca,15.8,-84.2833,299.74,75,3,6.15,HN,1616020755
Yumen,40.2833,97.2,272.46,55,100,6.71,CN,1616020755
Novichikha,52.204,81.3877,260.45,92,65,6.79,RU,1616020756
Gucheng,35.9115,111.3192,280.69,64,99,3.48,CN,1616020756
Cedar City,37.6775,-113.0619,285.15,30,1,5.14,US,1616020648
Wajima,37.4,136.9,280.26,60,57,2.91,JP,1616020757
Naberera,-4.2,36.9333,289.74,90,98,2.24,TZ,1616020757
Isangel,-19.55,169.2667,302.15,74,40,1.03,VU,1616020757
Finnsnes,69.2296,17.9811,255.15,85,93,1.03,NO,1616020757
Garoowe,8.4054,48.4845,293.88,87,23,4.45,SO,1616020758
Redcar,54.6166,-1.06,278.15,88,94,0.89,GB,1616020543
Buraidah,26.326,43.975,298.15,41,20,2.57,SA,1616020534
Tumaco,1.7986,-78.8156,299.16,84,88,2.73,CO,1616020595
Paraná,-31.732,-60.5238,293.71,71,31,1.34,AR,1616020758
Lompoc,34.6391,-120.4579,287.15,62,1,6.17,US,1616020759
Port Hawkesbury,45.6169,-61.3485,276.15,41,1,1.54,CA,1616020759
Zyryanka,65.75,150.85,253.4,84,0,6.06,RU,1616020759
Lata,40.1629,-8.3327,289.15,48,0,2.57,PT,1616020760
Abadan,38.0507,58.2056,281.15,87,75,3.09,TM,1616020760
Karpathos,35.507,27.2132,287.15,58,8,10.8,GR,1616020760
Ferreiras,37.1293,-8.2376,288.15,67,0,3.09,PT,1616020760
Satipo,-11.2522,-74.6386,298.62,78,96,0.4,PE,1616020761
Bayan,46.0833,127.4,269.13,70,0,0.94,CN,1616020761
Nikolayevsk-on-Amur,53.1406,140.73,263.8,80,100,1.66,RU,1616020761
Zunyi,27.6867,106.9072,289.24,94,97,2.83,CN,1616020762
Itaitinga,-3.9694,-38.5281,299.82,89,20,1.96,BR,1616020747
Bakchar,57.0186,82.0711,263.14,94,100,3.65,RU,1616020762
Laguna,38.421,-121.4238,288.71,60,100,0.45,US,1616020527
Nautla,20.2167,-96.7833,301.54,68,5,1.42,MX,1616020763
Vostok,46.4856,135.8833,267.2,93,100,1.15,RU,1616020763
Pa Daet,19.5049,99.9924,298.15,97,3,0.38,TH,1616020763
Edmundston,47.3737,-68.3251,281.15,34,100,1.54,CA,1616020763
Cusset,46.13,3.4596,278.15,75,90,5.66,FR,1616020764
Socorro,31.6546,-106.3033,293.15,15,1,2.57,US,1616020764
Ossora,59.2353,163.0719,263.9,91,100,6.0,RU,1616020764
Synya,65.3718,58.0387,268.81,96,100,1.77,RU,1616020765
Klaksvík,62.2266,-6.589,280.15,100,90,9.26,FO,1616020765
Kita,13.0349,-9.4895,300.17,13,0,1.75,ML,1616020765
Muroran,42.3172,140.9881,277.15,65,75,1.54,JP,1616020766
Ashcroft,50.7165,-121.2859,284.15,35,75,3.09,CA,1616020766
Kutum,14.2,24.6667,296.2,15,100,4.25,SD,1616020766
Vanavara,60.34,102.2797,257.43,98,82,2.14,RU,1616020767
Cabedelo,-6.9811,-34.8339,299.15,83,0,3.6,BR,1616020767
Magadan,59.5667,150.8,259.35,64,0,3.12,RU,1616020767
San Rafael,-34.6177,-68.3301,284.87,71,100,3.6,AR,1616020642
Nālūt,30.3333,10.85,286.89,37,1,7.48,LY,1616020768
Hue,16.4667,107.6,294.15,100,75,1.54,VN,1616020498
Riachão das Neves,-11.7461,-44.91,295.93,70,99,0.43,BR,1616020768
Torbay,47.6666,-52.7314,269.26,80,75,4.63,CA,1616020526
Vila Velha,-20.3297,-40.2925,299.15,78,0,6.17,BR,1616020489
Narsaq,60.9167,-46.05,284.15,25,75,4.63,GL,1616020769
Katsuura,35.1333,140.3,283.71,43,20,3.09,JP,1616020769
Puerto Gaitán,4.3133,-72.0816,301.82,62,60,4.05,CO,1616020669
Luang Prabang,19.8856,102.1347,295.95,67,82,0.4,LA,1616020770
La Orilla,17.9833,-102.2333,299.35,59,0,3.88,MX,1616020770
Kloulklubed,7.0419,134.2556,297.15,100,90,2.57,PW,1616020770
Dawson Creek,55.7666,-120.2362,285.15,26,1,5.14,CA,1616020770
Honiara,-9.4333,159.95,300.82,78,45,1.86,SB,1616020771
Chengzhong,30.95,113.55,283.15,100,90,2.0,CN,1616020771
Petatlán,17.5167,-101.2667,302.15,65,20,5.14,MX,1616020771
Margate,51.3813,1.3862,279.82,83,23,0.89,GB,1616020639
Zhangjiakou,40.81,114.8794,274.4,88,100,4.36,CN,1616020772
San Patricio,28.017,-97.5169,306.15,6,1,10.8,US,1616020772
Paraíso,9.8383,-83.8656,301.15,68,75,2.06,CR,1616020772
Port Hedland,-20.3167,118.5667,298.15,88,82,3.09,AU,1616020773
Trairi,-3.2778,-39.2689,298.1,89,100,2.59,BR,1616020773
Cukai,4.25,103.4167,296.15,94,88,1.91,MY,1616020773
Warrington,53.3925,-2.5802,280.15,93,68,2.57,GB,1616020774
Vredendal,-31.6683,18.5012,289.67,90,4,2.5,ZA,1616020774
Itarema,-2.9248,-39.9167,298.54,86,100,3.53,BR,1616020774
Conde,-7.2597,-34.9075,299.15,83,0,3.6,BR,1616020775
Ban Nahin,18.2418,104.2122,297.85,66,89,1.06,LA,1616020775
Mareeba,-17.0,145.4333,300.93,74,20,3.09,AU,1616020775
Nyurba,63.2842,118.3319,240.33,92,0,0.84,RU,1616020776
Valdosta,30.8327,-83.2785,301.15,47,20,3.09,US,1616020776
Huarmey,-10.0681,-78.1522,296.71,75,100,3.99,PE,1616020776
Fairbanks,64.8378,-147.7164,263.71,57,1,2.06,US,1616020690
Qaqortoq,60.7167,-46.0333,284.15,25,75,4.63,GL,1616020777
Santa Paula,34.3542,-119.0593,290.93,48,1,4.63,US,1616020777
Bathurst,-33.4166,149.5806,290.93,78,100,0.89,AU,1616020777
Lianhe,47.1333,129.2667,267.4,73,0,1.06,CN,1616020778
Burns Lake,54.2331,-125.7533,280.15,39,40,3.6,CA,1616020778
San Cristobal,7.7669,-72.225,299.15,89,75,1.03,VE,1616020778
Port Lincoln,-34.7333,135.8667,293.68,74,0,4.42,AU,1616020778
Kununurra,-15.7667,128.7333,298.15,100,90,2.57,AU,1616020779
Sioux Lookout,50.1001,-91.917,280.15,42,20,5.14,CA,1616020779
Bongandanga,1.5,21.05,293.48,98,74,0.77,CD,1616020779
Syamzha,60.0158,41.0614,271.44,98,100,0.46,RU,1616020780
Makkaveyevo,51.7533,113.9454,258.15,72,56,0.84,RU,1616020780
Kurri Kurri,-32.8167,151.4833,292.04,96,100,0.89,AU,1616020780
Roquetas de Mar,36.7642,-2.6148,288.71,47,0,3.09,ES,1616020781
Bandrele,-12.9067,45.1914,300.15,89,65,2.06,YT,1616020781
Jalu,29.0331,21.5482,285.4,68,0,3.1,LY,1616020781
Miles City,46.4083,-105.8406,280.15,36,1,1.54,US,1616020781
Luwuk,-0.9516,122.7875,300.0,80,32,0.58,ID,1616020782
Biak,-0.9131,122.8766,299.01,79,30,0.52,ID,1616020782
Bubaque,11.2833,-15.8333,298.32,65,0,8.44,GW,1616020782
Chicama,-7.8447,-79.1469,296.15,83,40,4.12,PE,1616020783
Calamar,10.2511,-74.9146,302.15,74,40,8.23,CO,1616020783
Celestún,20.8667,-90.4,301.21,68,0,6.51,MX,1616020783
Morón,-34.6534,-58.6198,290.93,72,74,0.89,AR,1616020589
Mwinilunga,-11.7358,24.4293,288.7,94,40,0.3,ZM,1616020784
Skibbereen,51.55,-9.2667,280.15,93,20,5.14,IE,1616020784
Byron Bay,-28.65,153.6167,294.15,94,90,2.57,AU,1616020339
Beckley,37.7782,-81.1882,296.15,40,1,3.6,US,1616020785
Zhezkazgan,47.8043,67.7144,260.62,72,0,3.89,KZ,1616020785
Oistins,13.0667,-59.5333,299.15,61,20,5.66,BB,1616020785
Husavik,66.0449,-17.3389,285.15,54,0,3.6,IS,1616020785
Azuaga,38.2667,-5.6833,285.93,50,0,0.89,ES,1616020786
Opuwo,-18.0607,13.84,294.6,53,53,1.06,NA,1616020786
San Rafael del Sur,11.8485,-86.4384,306.15,46,20,6.17,NI,1616020786
Capão da Canoa,-29.7456,-50.0097,297.93,85,98,1.33,BR,1616020564
Yelan',50.949,43.7378,269.45,97,100,2.39,RU,1616020787
Gemena,3.25,19.7667,292.71,93,56,0.78,CD,1616020787
Tougue,11.4667,-11.6,296.25,23,24,1.3,GN,1616020787
Karasjok,69.4719,25.5112,268.15,80,75,8.75,NO,1616020788
Sinnamary,5.3833,-52.95,297.92,82,72,5.03,GF,1616020788
Mount Isa,-20.7333,139.5,298.15,41,54,3.09,AU,1616020788
Seymchan,62.8833,152.4333,249.8,68,0,0.87,RU,1616020789
Bowen,-20.0167,148.2333,297.15,88,90,2.57,AU,1616020789
Henties Bay,-22.116,14.2845,289.26,90,25,0.89,NA,1616020789
Okhotsk,59.3833,143.3,258.48,62,0,8.63,RU,1616020790
Vila,42.0304,-8.1588,284.26,69,8,2.68,PT,1616020790
Kuusamo,65.9667,29.1833,255.15,85,0,2.57,FI,1616020790
Gobabis,-22.45,18.9667,293.82,64,71,2.03,NA,1616020791
Codrington,-38.2667,141.9667,292.82,63,0,2.24,AU,1616020791
Campbell River,50.0163,-125.2446,283.15,71,75,5.14,CA,1616020555
Yerbogachën,61.2767,108.0108,257.4,97,88,2.18,RU,1616020791
Bud,39.447,-86.1758,289.26,78,100,3.21,US,1616020792
Ovsyanka,55.9575,92.5519,259.15,72,0,2.28,RU,1616020792
Doda,33.1333,75.5667,285.64,64,0,1.87,IN,1616020792
Olivet,47.8622,1.8991,279.26,87,90,3.09,FR,1616020793
Baoqing,46.3317,132.2111,270.2,67,29,2.65,CN,1616020793
Kulhudhuffushi,6.6221,73.07,301.22,64,81,0.62,MV,1616020793
Belmonte,-15.8631,-38.8828,299.15,78,90,3.6,BR,1616020794
Constantine,36.365,6.6147,279.15,87,75,1.03,DZ,1616020794
Tual,-5.6667,132.75,301.77,67,42,1.88,ID,1616020794
Naze,28.3667,129.4833,291.15,94,40,0.51,JP,1616020795
Tuatapere,-46.1333,167.6833,287.04,75,1,1.34,NZ,1616020795
Manadhoo,5.7667,73.3833,301.52,62,97,1.32,MV,1616020795
Nara,34.6851,135.8049,278.71,81,20,3.09,JP,1616020796
Sopur,34.3,74.4667,280.2,72,0,0.92,IN,1616020796
Dengzhou,37.8086,120.7508,278.53,53,90,2.8,CN,1616020796
Ankang,32.68,109.0172,286.48,29,84,3.58,CN,1616020797
Santa Maria,-29.6842,-53.8069,297.15,73,75,4.63,BR,1616020797
Bella Vista,36.4295,-94.2316,292.15,68,1,4.63,US,1616020797
Along,28.1667,94.7667,287.63,75,0,1.13,IN,1616020697
Tyukalinsk,55.8732,72.1967,265.56,95,90,4.1,RU,1616020798
Atambua,-9.1061,124.8925,295.65,89,100,1.3,ID,1616020798
Pisco,-13.7,-76.2167,297.15,64,0,10.8,PE,1616020798
Petra,30.3222,35.4793,281.17,58,0,4.05,JO,1616020799
Zhigansk,66.7697,123.3711,236.17,82,0,1.05,RU,1616020799
Wau,7.7029,27.9953,297.23,77,100,4.54,SS,1616020799
Trincomalee,8.5711,81.2335,299.87,72,63,4.21,LK,1616020799
Abu Kamal,34.4506,40.9171,287.79,43,2,3.96,SY,1616020800
Mabua,9.8089,125.4422,300.5,81,6,4.12,PH,1616020800
Kumul,42.8,93.45,276.07,43,88,2.45,CN,1616020751
Māngrol,21.1167,70.1167,296.9,58,42,4.18,IN,1616020822
San Roque,36.2107,-5.3842,289.15,77,16,8.23,ES,1616020822
Pocatello,42.8713,-112.4455,285.37,32,75,3.05,US,1616020682
Kiryat Gat,31.61,34.7642,286.48,88,11,2.24,IL,1616020822
Ilulissat,69.2167,-51.1,265.15,86,75,9.77,GL,1616020823
Oranjemund,-28.55,16.4333,289.71,95,3,1.96,NA,1616020823
Pimentel,-6.8367,-79.9342,299.15,65,0,10.29,PE,1616020823
El Tarra,8.5756,-73.0949,297.63,94,67,1.02,CO,1616020824
Zambezi,-13.5432,23.1047,290.77,94,71,0.93,ZM,1616020824
Teya,60.3778,92.6267,261.59,94,99,3.34,RU,1616020824
Neyshabur,36.2133,58.7958,288.06,36,95,2.1,IR,1616020820
Isla Mujeres,21.2311,-86.731,301.15,69,40,9.26,MX,1616020825
Wilmington,34.2257,-77.9447,287.15,77,90,3.09,US,1616020628
Binga,-17.6203,27.3414,294.63,77,21,0.54,ZW,1616020825
Sovetskoye,52.2861,85.4131,256.97,91,16,1.41,RU,1616020825
Manokwari,-0.8667,134.0833,300.21,75,100,1.86,ID,1616020826
Hobyo,5.3505,48.5268,300.12,81,98,5.74,SO,1616020826
Nouakchott,18.0858,-15.9785,296.15,60,0,5.66,MR,1616020805
Kalabo,-14.97,22.6814,292.58,87,71,1.55,ZM,1616020826
Passo de Camaragibe,-9.2368,-35.4901,298.15,83,0,3.09,BR,1616020827
Ust-Nera,64.5667,143.2,252.66,97,100,1.79,RU,1616020827
Maricá,-22.9194,-42.8186,303.15,78,0,4.63,BR,1616020827
Bunia,1.5667,30.25,290.99,96,100,3.82,CD,1616020828
Vangaindrano,-23.35,47.6,295.58,88,23,1.34,MG,1616020828
Sikonge,-5.6333,32.7667,293.15,83,20,1.08,TZ,1616020828
Upernavik,72.7868,-56.1549,250.39,98,76,7.15,GL,1616020828
Banda Aceh,5.5577,95.3222,299.17,83,35,2.76,ID,1616020829
Malaya Serdoba,52.4661,44.9512,269.28,96,97,2.77,RU,1616020829
Almaznyy,48.0448,40.045,278.15,100,40,4.0,RU,1616020829
Norman Wells,65.282,-126.8329,256.15,66,90,3.09,CA,1616020830
Pangnirtung,66.1451,-65.7125,246.15,69,20,0.57,CA,1616020830
Hazorasp,41.3194,61.0742,273.15,80,0,6.17,UZ,1616020830
Varkala,8.7341,76.7067,300.15,78,20,2.86,IN,1616020831
Sambava,-14.2667,50.1667,298.5,87,96,4.93,MG,1616020831
Denpasar,-8.65,115.2167,297.15,94,20,1.03,ID,1616020831
Entre Rios,-11.9419,-38.0844,296.12,89,33,2.22,BR,1616020831
Radišići,43.2219,17.5431,278.15,52,20,2.06,BA,1616020832
Broken Hill,-31.95,141.4333,289.15,88,90,6.17,AU,1616020832
Macon,39.8667,-88.9668,282.15,100,90,7.2,US,1616020832
Port-Gentil,-0.7193,8.7815,300.15,83,40,2.06,GA,1616020833
Nelson Bay,-32.7167,152.15,293.15,100,90,9.26,AU,1616020833
Bend,44.0582,-121.3153,287.15,26,1,2.06,US,1616020552
Sept-Îles,50.2001,-66.3821,273.71,69,90,1.03,CA,1616020833
Kousséri,12.0769,15.0306,302.15,21,29,3.09,CM,1616020834
Tsuruoka,38.7217,139.8217,279.15,70,75,6.69,JP,1616020834
Tuy Hoa,13.0833,109.3,295.19,91,86,1.36,VN,1616020834
Betafo,-19.8333,46.85,290.68,96,100,1.85,MG,1616020835
Salinópolis,-0.6136,-47.3561,298.0,90,100,3.94,BR,1616020835
Leh,34.1667,77.5833,266.77,74,92,2.63,IN,1616020835
Hualmay,-11.0964,-77.6139,296.21,76,100,4.45,PE,1616020836
Charleston,32.7766,-79.9309,290.37,88,75,3.09,US,1616020401
Sangar,63.9242,127.4739,242.3,94,18,3.12,RU,1616020836
Clyde River,70.4692,-68.5914,244.15,69,20,2.06,CA,1616020741
Beira,-19.8436,34.8389,298.15,94,20,1.54,MZ,1616020836
Ende,-8.8432,121.6623,299.02,85,95,1.6,ID,1616020837
Sabha,27.0377,14.4283,289.13,25,0,6.13,LY,1616020837
Makakilo City,21.3469,-158.0858,299.15,53,20,4.63,US,1616020837
Tazovsky,67.4667,78.7,244.42,97,59,4.57,RU,1616020838
Juneau,58.3019,-134.4197,276.15,75,90,19.03,US,1616020838
Samarinda,-0.5,117.15,297.5,96,94,0.64,ID,1616020838
Namatanai,-3.6667,152.4333,302.46,64,53,0.99,PG,1616020839
Labuan,5.2767,115.2417,299.15,89,40,2.63,MY,1616020839
Saint-Orens-de-Gameville,43.554,1.5341,280.37,70,88,4.12,FR,1616020839
Alekseyevsk,57.8406,108.3492,259.99,97,100,1.85,RU,1616020840
Nizhniy Baskunchak,48.2198,46.8311,273.18,85,96,1.81,RU,1616020840
Ostrovnoy,68.0531,39.5131,259.34,84,9,5.11,RU,1616020840
La Crosse,43.8014,-91.2396,280.15,57,1,4.63,US,1616020841
Fortuna,40.5982,-124.1573,288.71,62,1,3.6,US,1616020841
Galveston,29.3669,-94.9669,300.15,29,1,8.75,US,1616020677
Marquette,46.5333,-87.6335,277.04,64,66,2.05,US,1616020841
Cherdyn',60.403,56.4787,269.27,92,100,3.85,RU,1616020842
Matara,5.9485,80.5353,296.83,87,100,3.3,LK,1616020842
Kommunisticheskiy,61.6789,64.4819,266.51,94,78,2.59,RU,1616020842
Berlevåg,70.8578,29.0864,271.15,59,75,12.35,NO,1616020843
La Unión,-5.4,-80.75,302.62,51,60,8.4,PE,1616020843
Papara,-3.9839,-38.7273,299.82,89,20,0.94,BR,1616020843
Vigrestad,58.5667,5.7,275.93,92,100,5.75,NO,1616020844
Agüimes,27.9054,-15.4461,291.15,68,20,6.69,ES,1616020844
Vengerovo,55.6848,76.7471,266.82,94,100,5.12,RU,1616020844
Luwero,0.8492,32.4731,291.44,96,93,0.86,UG,1616020844
Aba,5.1066,7.3667,299.15,89,20,1.54,NG,1616020845
Birao,10.2849,22.7882,299.03,61,92,3.29,CF,1616020845
Malakal,9.5334,31.6605,301.4,45,86,3.28,SS,1616020845
Östersund,63.1792,14.6357,271.15,86,40,7.2,SE,1616020846
Bolu Province,40.6667,31.5833,274.3,92,100,3.73,TR,1616020846
Pop,40.8736,71.1089,275.15,75,2,3.09,UZ,1616020846
Panzhihua,26.5851,101.7128,284.39,42,0,0.84,CN,1616020846
Dingle,10.9995,122.6711,298.91,90,69,3.39,PH,1616020847
Kysyl-Syr,63.8986,122.7617,239.82,92,5,1.35,RU,1616020847
Babu,24.4167,111.5167,295.18,90,51,1.61,CN,1616020847
Peniche,39.3558,-9.3811,288.71,67,0,0.89,PT,1616020848
Linhares,-19.3911,-40.0722,295.88,93,52,1.25,BR,1616020781
Nakhon Phanom,17.3333,104.4167,298.08,64,90,1.32,TH,1616020848
Vila Franca do Campo,37.7167,-25.4333,288.15,72,75,3.09,PT,1616020848
Mattru,7.6244,-11.8332,297.33,77,98,1.26,SL,1616020849
Bara,10.3744,10.7288,299.39,17,22,1.9,NG,1616020849
Arauco,-37.2463,-73.3175,290.15,67,0,3.6,CL,1616020624
Tocopilla,-22.092,-70.1979,293.81,84,49,4.93,CL,1616020850
Carroll,39.5501,-77.0164,281.15,81,90,2.57,US,1616020850
Sidi Ali,36.0998,0.4206,284.45,71,0,3.62,DZ,1616020850
Catabola,-12.15,17.2833,289.24,96,95,1.56,AO,1616020851
Khorinsk,52.1657,109.7726,258.9,87,82,1.1,RU,1616020851
Ziarat,30.3823,67.7282,281.25,30,86,2.33,PK,1616020821
Grand Baie,-20.0182,57.5802,297.04,81,6,0.45,MU,1616020851
Kavaratti,10.5669,72.642,300.92,70,46,1.88,IN,1616020852
Jacmel,18.2342,-72.5347,302.15,58,20,4.12,HT,1616020852
Tabou,4.423,-7.3528,299.11,86,100,5.16,CI,1616020852
Nago,26.5881,127.9761,294.15,88,40,1.54,JP,1616020853
Guerrero Negro,27.9769,-114.0611,292.01,45,0,7.09,MX,1616020853
Örnsköldsvik,63.2909,18.7153,273.15,86,90,4.63,SE,1616020853
Kaeo,-35.1,173.7833,294.82,67,18,5.36,NZ,1616020853
Dalby,-27.1833,151.2667,295.93,75,67,1.34,AU,1616020854
Skjervøy,70.0311,20.9714,271.91,62,100,8.59,NO,1616020854
Grootfontein,-19.5667,18.1167,291.15,100,63,1.03,NA,1616020854
Palmer,42.1584,-72.3287,281.15,57,20,3.09,US,1616020827
Saint Anthony,45.0205,-93.218,279.82,65,90,5.14,US,1616020855
Santa Isabel Rio Negro,-0.4139,-65.0192,297.71,92,92,0.56,BR,1616020855
Al Bardīyah,31.7561,25.0865,286.94,65,5,4.4,LY,1616020855
Emba,48.8264,58.1442,269.59,66,100,11.27,KZ,1616020856
Yar-Sale,66.8333,70.8333,245.81,94,96,2.38,RU,1616020856
Baghdad,33.3406,44.4009,292.15,48,0,2.06,IQ,1616020844
Gambiran,-6.7988,111.4951,296.76,90,92,1.07,ID,1616020856
Mahibadhoo,3.7833,72.9667,301.08,73,98,2.63,MV,1616020649
Mpongwe,-13.5091,28.155,290.35,96,98,1.93,ZM,1616020857
Beneditinos,-5.45,-42.3667,296.15,94,90,8.75,BR,1616020857
Farafangana,-22.8167,47.8333,296.62,89,95,2.09,MG,1616020858
Sabang,5.8933,95.3214,301.29,72,51,3.35,ID,1616020858
Okha,53.5739,142.9478,262.2,73,100,6.19,RU,1616020858
College,64.8569,-147.8028,263.71,62,75,0.87,US,1616020858
Midyat,37.4247,41.3393,283.15,71,75,6.17,TR,1616020859
Taoudenni,22.6783,-3.9836,296.29,14,53,4.64,ML,1616020859
Kirakira,-10.4544,161.9205,301.84,69,70,1.52,SB,1616020859
Demmin,53.9076,13.0314,274.82,93,75,2.06,DE,1616020860
Prabumulih,-3.45,104.25,296.13,98,100,0.66,ID,1616020860
Tura,25.5198,90.2201,293.64,24,16,1.42,IN,1616020860
Kudahuvadhoo,2.6708,72.8944,300.87,71,91,0.42,MV,1616020861
Hokitika,-42.7167,170.9667,290.49,57,79,0.56,NZ,1616020861
Niltepec,16.5667,-94.6167,302.4,59,19,5.2,MX,1616020861
Sungai Penuh,-2.0833,101.3833,291.41,97,100,0.87,ID,1616020862
Hamilton,39.1834,-84.5333,290.15,59,90,1.54,US,1616020591
Zabid,14.1951,43.3152,299.22,54,1,2.48,YE,1616020862
Krasnaya Gora,52.9995,31.6023,274.15,93,90,3.0,RU,1616020862
Severomuysk,56.1481,113.4267,251.42,93,90,0.6,RU,1616020863
Barra de Tecoanapa,16.5167,-98.75,301.11,60,0,4.69,MX,1616020863
Porto de Moz,-1.7483,-52.2383,297.27,95,99,1.7,BR,1616020864
Russell,32.3502,-85.1999,296.15,83,40,3.74,US,1616020864
Yeniseysk,58.4497,92.1703,261.54,96,99,2.46,RU,1616020864
Mahenge,-8.6833,36.7167,290.27,95,97,0.65,TZ,1616020864
Ucluelet,48.9329,-125.5528,283.71,71,75,5.66,CA,1616020680
Puerto El Triunfo,13.2833,-88.55,308.15,28,0,2.57,SV,1616020865
Verkhoyansk,67.5447,133.385,242.86,89,89,1.62,RU,1616020620
Alyangula,-13.8483,136.4192,302.2,68,94,2.19,AU,1616020865
Great Yarmouth,52.6083,1.7305,279.15,93,40,2.06,GB,1616020866
Panipat,29.3889,76.9681,292.27,30,99,0.11,IN,1616020866
Jinxiang,27.4327,120.6062,285.69,89,70,2.55,CN,1616020866
Pangody,65.85,74.4859,247.8,96,88,3.35,RU,1616020866
Malartic,48.1335,-78.1328,279.15,45,90,5.14,CA,1616020867
Tiarei,-17.5333,-149.3333,304.15,58,75,3.6,PF,1616020867
Zavyalovo,54.5053,82.4484,263.15,79,90,5.0,RU,1616020867
Gravdal,68.1214,13.5031,272.49,61,100,3.13,NO,1616020868
Bandarbeyla,9.4942,50.8122,298.32,80,52,4.19,SO,1616020868
Tucuruí,-3.7661,-49.6725,297.46,91,90,2.25,BR,1616020868
Vanimo,-2.6741,141.3028,299.87,72,77,1.07,PG,1616020869
Plouzané,48.3833,-4.6167,280.15,93,0,3.09,FR,1616020869
Taylor,32.3001,-99.8337,286.15,35,1,11.83,US,1616020869
Thunder Bay,48.4001,-89.3168,282.15,43,40,4.63,CA,1616020665
Gola Gokarannāth,28.0833,80.4667,292.36,29,57,1.36,IN,1616020870
Mīnāb,27.1467,57.0801,294.15,64,0,2.06,IR,1616020870
Stann Creek Town,16.9692,-88.2321,302.15,70,20,3.6,BZ,1616020870
Ponta Delgada,37.7333,-25.6667,288.15,72,75,3.09,PT,1616020606
Port Hueneme,34.1478,-119.1951,290.15,58,1,6.17,US,1616020871
Manaure,11.7751,-72.4445,301.32,63,72,9.69,CO,1616020871
Abu Dhabi,24.4667,54.3667,298.15,38,0,1.54,AE,1616020766
Dunedin,-45.8742,170.5036,285.93,61,0,3.58,NZ,1616020871
Ketchikan,55.3422,-131.6461,280.15,76,90,5.14,US,1616020872
Cidreira,-30.1811,-50.2056,297.38,87,63,1.97,BR,1616020872
Winslow,35.0242,-110.6974,288.71,33,1,2.06,US,1616020872
Khovd,48.0056,91.6419,264.62,53,99,0.81,MN,1616020872
Vardø,70.3705,31.1107,270.15,100,90,17.49,NO,1616020873
