City,Lat,Lng,Max Temp,Humidity,Cloudiness,Wind Speed,Country,Date
Tuktoyaktuk,69.4541,-133.0374,-9.4,84,75,10.36,CA,1616109435
Andrews,32.3187,-102.5457,62.6,17,1,5.03,US,1616109436
Requena,39.4883,-1.1004,46.0,91,49,3.87,ES,1616109436
Puerto Colombia,10.9878,-74.9547,78.8,78,75,12.66,CO,1616109436
Ushuaia,-54.8,-68.3,46.4,71,40,11.5,AR,1616109423
Port Elizabeth,-33.918,25.5701,69.8,83,20,23.02,ZA,1616109437
Atuona,-9.8,-139.0333,80.8,75,0,10.83,PF,1616109437
Alquízar,22.8058,-82.5842,82.4,57,20,6.91,CU,1616109437
Mataura,-46.1927,168.8643,55.99,92,93,1.99,NZ,1616109438
The Valley,18.217,-63.0578,78.01,69,40,10.36,AI,1616109438
Coahuayana Viejo,18.7333,-103.6833,84.2,45,20,13.8,MX,1616109438
Yellowknife,62.456,-114.3525,30.99,68,75,9.22,CA,1616109186
New Norfolk,-42.7826,147.0587,64.99,58,0,1.01,AU,1616109439
Katsuura,35.1333,140.3,57.99,51,96,1.99,JP,1616109439
Zyryanka,65.75,150.85,-17.1,93,100,10.87,RU,1616109439
Bandundu Province,-3.3167,17.3667,73.29,92,73,2.28,CD,1616109440
Enugu,6.4402,7.4943,82.4,69,40,3.44,NG,1616109440
Khartoum,15.5518,32.5324,89.01,15,54,1.01,SD,1616109440
Cabo San Lucas,22.8909,-109.9124,78.8,22,1,11.5,MX,1616109269
Hilo,19.7297,-155.09,70.0,83,90,3.44,US,1616109441
Kapaa,22.0752,-159.319,70.0,94,90,24.16,US,1616109441
Rikitea,-23.1203,-134.9692,80.69,77,87,18.41,PF,1616109441
Ugoofaaru,5.6667,73.0,82.24,72,83,6.64,MV,1616109442
Albany,42.6001,-73.9662,41.0,87,100,1.01,US,1616109367
Mahébourg,-20.4081,57.7,73.4,83,20,10.8,MU,1616109371
Bredasdorp,-34.5322,20.0403,60.8,82,22,10.36,ZA,1616109442
Puri,19.8,85.85,73.4,100,90,5.75,IN,1616109443
Krasnosel'kup,65.7,82.4667,-1.55,97,96,10.22,RU,1616109443
Aswān,24.0934,32.907,66.69,21,0,12.39,EG,1616109443
Tasiilaq,65.6145,-37.6368,33.8,64,75,13.8,GL,1616109443
Novobureyskiy,49.798,129.8774,17.87,87,0,3.27,RU,1616109444
Jining,35.405,116.5814,44.24,52,99,2.59,CN,1616109444
Grand-Lahou,5.1367,-5.0242,77.7,86,100,4.9,CI,1616109444
Sioux Lookout,50.1001,-91.917,44.6,24,20,10.36,CA,1616109444
Khatanga,71.9667,102.5,-19.32,96,100,10.36,RU,1616109445
Yangi Marg`ilon,40.4272,71.7189,44.6,29,30,4.61,UZ,1616109445
Fort Nelson,58.8053,-122.7002,50.0,27,75,2.3,CA,1616109445
Nanortalik,60.1432,-45.2371,27.14,77,94,7.58,GL,1616109446
Saryg-Sep,51.5,95.6,4.62,91,87,1.97,RU,1616109446
Vaini,-21.2,-175.2,86.0,70,40,5.75,TO,1616109446
Port Blair,11.6667,92.75,77.76,67,0,2.44,IN,1616109447
Dwārka,22.2394,68.9678,74.17,78,0,11.61,IN,1616109447
Himatnagar,23.6,72.95,77.0,41,4,4.61,IN,1616109447
Severo-Kuril'sk,50.6789,156.125,31.44,90,54,9.89,RU,1616109447
Edéia,-17.3383,-49.9314,71.13,88,98,3.47,BR,1616109448
Punta Arenas,-53.15,-70.9167,53.6,71,75,11.5,CL,1616109187
Naze,28.3667,129.4833,68.0,94,75,4.61,JP,1616109448
Kibaya,-5.3,36.5667,59.07,97,99,3.49,TZ,1616109448
Muromtsevo,56.3724,75.2418,15.33,86,100,8.19,RU,1616109449
Martapura,-3.4167,114.85,75.2,94,40,4.61,ID,1616109449
Tabou,4.423,-7.3528,77.83,87,100,5.7,CI,1616109449
Coquimbo,-29.9533,-71.3436,60.8,77,20,9.22,CL,1616109450
Fairhaven,41.6376,-70.9036,44.6,93,90,10.36,US,1616109450
Bluff,-46.6,168.3333,55.99,92,96,1.99,NZ,1616109327
Hobart,-42.8794,147.3294,64.0,72,20,5.75,AU,1616109294
San Ignacio,17.1561,-89.0714,86.0,65,0,6.91,BZ,1616109450
Barrow,71.2906,-156.7887,3.2,78,75,12.66,US,1616109451
Cherskiy,68.75,161.3,-12.42,81,0,3.58,RU,1616109451
São João da Barra,-21.6403,-41.0511,76.89,85,70,14.81,BR,1616109338
Qaanaaq,77.484,-69.3632,-13.56,76,0,4.7,GL,1616109451
Buckeye,33.3703,-112.5838,82.99,17,5,1.01,US,1616109362
Te Anau,-45.4167,167.7167,56.44,72,72,0.69,NZ,1616109452
Kupang,-10.1667,123.5833,77.0,100,20,1.14,ID,1616109452
Busselton,-33.65,115.3333,68.56,62,61,7.38,AU,1616109452
Portland,45.5234,-122.6762,48.99,85,100,3.0,US,1616109201
Turukhansk,65.8167,87.9833,-16.01,97,77,4.41,RU,1616109453
Saldanha,-33.0117,17.9442,62.2,83,33,7.92,ZA,1616109453
Wewak,-3.5534,143.6268,80.22,78,53,6.31,PG,1616109453
Ust-Nera,64.5667,143.2,-7.11,98,100,3.33,RU,1616109454
San Patricio,28.017,-97.5169,78.8,19,1,19.57,US,1616109454
Touho,-20.7833,165.2333,77.92,83,100,17.43,NC,1616109454
Simao,22.7886,100.9748,57.2,40,51,1.16,CN,1616109195
Carballo,43.213,-8.691,50.0,71,0,10.36,ES,1616109455
Chui,-33.6971,-53.4616,60.31,71,38,7.87,UY,1616109455
San Quintín,30.4833,-115.95,61.66,71,0,16.33,MX,1616109455
Opuwo,-18.0607,13.84,69.46,84,100,5.03,NA,1616109455
Acandí,8.5063,-77.2778,78.73,92,100,5.75,CO,1616109456
Ca Mau,9.1769,105.15,74.59,91,92,2.62,VN,1616109456
Hithadhoo,-0.6,73.0833,82.24,73,99,7.45,MV,1616109456
Ponta do Sol,32.6667,-17.1,62.6,59,20,11.5,PT,1616109457
Castro,-24.7911,-50.0119,65.21,93,2,10.56,BR,1616109200
Abonnema,4.7084,6.7931,79.16,81,69,4.12,NG,1616109457
Brae,60.3964,-1.353,42.8,93,75,12.66,GB,1616109457
Lavrentiya,65.5833,-171.0,-6.2,80,0,1.34,RU,1616109458
Acaraú,-2.8856,-40.12,78.46,83,100,7.78,BR,1616109458
Esperance,-33.8667,121.9,59.0,94,0,11.5,AU,1616109458
Madaoua,14.073,5.96,81.88,20,80,3.74,NE,1616109458
Huanren,41.2647,125.3667,35.55,54,8,1.86,CN,1616109459
Gryfino,53.2524,14.4883,35.01,96,80,6.38,PL,1616109459
Krasnoarmeysk,51.0239,45.6969,24.93,95,100,5.61,RU,1616109459
Hofn,64.2539,-15.2082,46.18,87,0,12.62,IS,1616109460
Ingham,42.6,-84.3833,37.4,56,1,19.57,US,1616109460
Nikolskoye,59.7035,30.7861,23.0,79,0,4.47,RU,1616109460
Port Alfred,-33.5906,26.891,70.72,89,3,7.58,ZA,1616109438
Dakar,14.6937,-17.4441,66.2,100,20,4.61,SN,1616109431
Puerto Cabezas,14.0351,-83.3888,78.8,94,75,9.64,NI,1616109461
Yatou,37.15,122.3833,40.24,67,71,4.9,CN,1616109461
Tiksi,71.6872,128.8694,-8.39,99,100,11.07,RU,1616109461
Puerto Ayora,-0.7393,-90.3518,82.4,78,75,6.91,EC,1616109391
Numan,9.4667,12.0333,87.91,30,92,3.31,NG,1616109462
Upernavik,72.7868,-56.1549,-6.84,96,90,7.02,GL,1616109462
Saint George,37.1041,-113.5841,71.01,32,1,6.91,US,1616109306
Karratha,-20.7377,116.8463,79.61,62,0,15.61,AU,1616109463
Lagoa,39.05,-27.9833,58.46,81,100,20.38,PT,1616109463
Crabtree,45.9668,-73.4659,32.0,34,88,11.5,CA,1616109463
George Town,5.4112,100.3354,81.0,83,20,3.44,MY,1616109464
Arrondissement de Dole,47.0833,5.5,33.8,86,0,2.3,FR,1616109464
Vila Franca do Campo,37.7167,-25.4333,59.0,77,40,9.22,PT,1616109464
Salalah,17.0151,54.0924,75.2,43,0,4.61,OM,1616109464
Berlevåg,70.8578,29.0864,17.6,67,20,16.11,NO,1616109465
Avarua,-21.2078,-159.775,84.2,74,20,17.27,CK,1616109465
Pevek,69.7008,170.3133,-18.53,88,0,0.87,RU,1616109465
Saint Paul Harbor,57.79,-152.4072,30.2,43,75,17.27,US,1616109466
Goderich,43.7501,-81.7165,35.6,38,100,19.57,CA,1616109305
Pisco,-13.7,-76.2167,71.6,73,0,19.57,PE,1616109466
Novo Aripuanã,-5.1206,-60.3797,71.56,99,100,2.19,BR,1616109466
Kaitangata,-46.2817,169.8464,56.55,66,89,6.04,NZ,1616109467
Chokurdakh,70.6333,147.9167,-35.77,88,5,7.31,RU,1616109467
Chernyshevskiy,63.0128,112.4714,12.06,92,100,11.25,RU,1616109467
Gwadar,25.1216,62.3254,73.06,69,0,4.18,PK,1616109468
García,25.8167,-100.5833,77.0,14,1,8.05,MX,1616109468
Margate,51.3813,1.3862,44.01,91,100,3.0,GB,1616109468
Sur,22.5667,59.5289,79.07,41,0,8.84,OM,1616109468
Ayagoz,47.9714,80.4392,8.38,74,0,8.72,KZ,1616109469
Jaciara,-15.9653,-54.9683,73.56,92,98,1.41,BR,1616109469
Udachny,66.4167,112.4,9.81,89,99,17.58,RU,1616109469
Port Moresby,-9.4431,147.1797,78.8,89,40,6.91,PG,1616109470
Marmaris,36.855,28.2742,51.8,87,0,5.75,TR,1616109470
Ürümqi,43.801,87.6005,23.0,74,0,4.47,CN,1616109254
Sørland,67.667,12.6934,34.95,51,100,16.15,NO,1616109470
Cape Town,-33.9258,18.4232,63.0,72,20,2.3,ZA,1616109230
Marawi,7.9986,124.2928,75.99,82,5,5.01,PH,1616109471
Montepuez,-13.1256,38.9997,68.45,98,7,2.46,MZ,1616109471
Saint-Pierre,-21.3393,55.4781,75.2,73,0,4.61,RE,1616109471
Aberfeldy,56.62,-3.8645,48.99,81,14,4.92,GB,1616109472
Basco,20.4487,121.9702,76.53,81,99,16.08,PH,1616109472
Mama,58.3106,112.8986,14.52,95,100,5.66,RU,1616109472
Yarmouth,41.7057,-70.2286,43.0,87,90,4.61,US,1616109473
Hermanus,-34.4187,19.2345,57.99,92,77,6.11,ZA,1616109189
Kabrāi,25.4167,80.0167,79.66,29,100,2.89,IN,1616109473
Presidencia Roque Sáenz Peña,-26.7852,-60.4388,72.0,66,12,4.0,AR,1616109473
Taoudenni,22.6783,-3.9836,73.53,14,0,6.67,ML,1616109474
Aksarka,66.5606,67.7975,-4.23,97,100,8.19,RU,1616109474
Santa Marta,11.2408,-74.199,84.0,64,88,15.01,CO,1616109214
Krasnyy Kut,50.95,46.9667,28.76,96,100,7.34,RU,1616109474
Alice Springs,-23.7,133.8833,68.0,60,95,16.15,AU,1616109475
Half Moon Bay,37.4636,-122.4286,57.2,93,90,14.97,US,1616109357
Puerto Escondido,15.85,-97.0667,82.4,69,20,5.95,MX,1616109475
Namatanai,-3.6667,152.4333,84.31,66,89,5.86,PG,1616109475
East London,-33.0153,27.9116,72.66,86,5,13.6,ZA,1616109476
Vanimo,-2.6741,141.3028,80.53,79,100,4.92,PG,1616109476
Hervey Bay,-25.2986,152.8535,79.0,82,53,7.0,AU,1616109476
Ambon City,-3.6954,128.1814,80.6,83,20,4.61,ID,1616109477
North Platte,41.1239,-100.7654,44.6,49,1,5.75,US,1616109477
Cidreira,-30.1811,-50.2056,71.2,81,72,9.57,BR,1616109477
Nicoya,10.1483,-85.452,91.4,43,40,5.75,CR,1616109478
North Bend,43.4065,-124.2243,53.6,66,90,19.57,US,1616109236
Provideniya,64.3833,-173.3,-0.4,60,0,2.24,RU,1616109478
Rundu,-17.9333,19.7667,67.15,76,64,4.27,NA,1616109479
Norman Wells,65.282,-126.8329,6.8,78,90,11.5,CA,1616109479
Linxia Chengguanzhen,35.6003,103.2064,29.1,86,100,6.96,CN,1616109479
Boende,-0.2167,20.8667,71.26,91,83,1.77,CD,1616109480
Vestmannaeyjar,63.4427,-20.2734,46.31,91,100,18.72,IS,1616109480
Macas,-2.3167,-78.1167,77.0,65,75,5.75,EC,1616109480
Ol'ga,43.7444,135.2892,31.78,56,39,6.22,RU,1616109480
Deputatsky,69.3,139.9,-26.97,75,0,3.4,RU,1616109481
Lakeside,30.13,-81.7682,75.2,78,90,19.57,US,1616109481
Almaznyy,48.0448,40.045,39.2,100,75,6.71,RU,1616109481
Nchelenge,-9.3451,28.734,69.67,88,88,3.85,ZM,1616109482
Adrar,20.5022,-10.0711,69.15,12,0,2.37,MR,1616109482
Mastung,29.7994,66.845,55.94,28,29,2.91,PK,1616109482
Kashgar,39.4547,75.9797,39.2,56,20,4.47,CN,1616109483
Tautira,-17.7333,-149.15,87.8,62,40,4.61,PF,1616109483
Kaniama,-7.5667,24.1833,65.89,92,51,3.02,CD,1616109484
Mbalmayo,3.5167,11.5,71.6,100,75,2.3,CM,1616109484
Paita,-5.0892,-81.1144,77.23,74,100,11.59,PE,1616109332
Finschhafen,-6.6024,147.8681,84.49,67,78,2.42,PG,1616109484
Ahipara,-35.1667,173.1667,68.95,55,2,7.49,NZ,1616109485
Saskylakh,71.9167,114.0833,-23.66,93,100,11.99,RU,1616109485
Vilyuysk,63.7553,121.6247,13.66,91,100,10.45,RU,1616109485
Tsiroanomandidy,-18.7667,46.0333,67.14,95,100,2.89,MG,1616109486
Tokur,53.1333,132.9,7.32,93,85,1.83,RU,1616109486
Pochutla,15.7432,-96.4661,87.01,45,20,8.05,MX,1616109486
Kavieng,-2.5744,150.7967,82.98,73,98,5.73,PG,1616109486
Bloemfontein,-29.1211,26.214,55.4,88,35,2.3,ZA,1616109487
Formosa,-26.1775,-58.1781,73.4,83,0,5.75,AR,1616109487
Arraial do Cabo,-22.9661,-42.0278,77.65,84,50,22.24,BR,1616109487
Jiamusi,46.8333,130.35,28.26,69,89,2.42,CN,1616109487
Neuquén,-38.9516,-68.0591,62.6,67,0,1.14,AR,1616109488
Zhalantun,48.0,122.7167,29.05,55,100,2.24,CN,1616109488
Tarauacá,-8.1614,-70.7656,78.26,87,14,1.01,BR,1616109488
Colombo,6.9319,79.8478,77.14,85,94,6.6,LK,1616109313
Poum,-20.2333,164.0167,80.4,79,100,21.43,NC,1616109489
Moranbah,-22.0016,148.0466,77.88,73,90,14.94,AU,1616109489
Shimoda,34.6667,138.95,57.2,72,75,10.36,JP,1616109489
Bengkulu,-3.8004,102.2655,74.07,92,100,5.53,ID,1616109490
Ambilobe,-13.2,49.05,73.18,94,100,1.99,MG,1616109490
Itacarambi,-15.1022,-44.0919,76.17,57,54,2.57,BR,1616109490
Lichuan,30.3,108.85,51.75,96,96,5.19,CN,1616109490
Yar-Sale,66.8333,70.8333,-1.93,97,100,8.43,RU,1616109491
Ancud,-41.8697,-73.8203,56.66,74,6,7.18,CL,1616109491
Constantine,36.365,6.6147,42.8,87,40,1.14,DZ,1616109491
Faya,18.3851,42.4509,60.8,72,0,1.81,SA,1616109492
Inhambane,-23.865,35.3833,76.3,81,24,6.82,MZ,1616109492
Tacuatí,-23.45,-56.5833,79.93,60,72,4.5,PY,1616109492
Jamestown,42.097,-79.2353,37.0,80,90,18.92,US,1616109492
Muros,42.7762,-9.0603,51.01,61,80,18.77,ES,1616109493
Mocuba,-16.8392,36.9856,71.13,97,2,1.43,MZ,1616109493
Villazón,-22.0866,-65.5942,55.74,64,81,15.37,BO,1616109493
Olafsvik,64.8945,-23.7142,41.25,90,100,4.65,IS,1616109494
Thompson,55.7435,-97.8558,48.2,37,40,14.97,CA,1616109494
Samaná,19.2056,-69.3369,77.0,88,20,9.01,DO,1616109309
Sitka,57.0531,-135.33,39.2,60,40,10.36,US,1616109494
Iqaluit,63.7506,-68.5145,-14.8,64,20,8.05,CA,1616109495
Vardø,70.3705,31.1107,19.4,63,40,10.36,NO,1616109337
Mergen,49.1833,125.2167,22.84,85,94,4.16,CN,1616109445
Ribeira Grande,38.5167,-28.7,60.01,82,100,18.66,PT,1616109495
Kedrovka,55.5333,86.05,12.2,92,90,6.71,RU,1616109495
Kieta,-6.2167,155.6333,83.7,73,39,0.81,PG,1616109496
Coolum Beach,-26.5333,153.1,75.0,89,63,4.0,AU,1616109496
Pasinler,39.9803,41.6764,26.6,100,75,2.3,TR,1616109496
Jiuquan,39.7432,98.5174,25.57,33,100,4.05,CN,1616109497
Hong Kong,22.2855,114.1577,75.0,89,97,3.0,HK,1616109497
Namtsy,62.7161,129.6658,-22.0,76,9,2.24,RU,1616109497
Ilulissat,69.2167,-51.1,10.4,72,75,12.66,GL,1616109498
Narsaq,60.9167,-46.05,28.4,50,90,4.61,GL,1616109498
Mar del Plata,-38.0023,-57.5575,59.0,72,0,3.44,AR,1616109438
Muskogee,35.5834,-95.3336,48.99,61,90,13.8,US,1616109498
Riyadh,24.6877,46.7219,91.4,13,40,13.8,SA,1616109311
Port Hedland,-20.3167,118.5667,77.0,69,90,14.97,AU,1616109499
Sibolga,1.7427,98.7792,75.87,87,92,3.09,ID,1616109499
Vuktyl,63.8567,57.3094,20.25,91,100,3.24,RU,1616109499
Butaritari,3.0707,172.7902,81.66,76,0,11.68,KI,1616109500
Bandarbeyla,9.4942,50.8122,77.11,77,29,8.75,SO,1616109500
Hoquiam,46.9809,-123.8893,48.99,76,90,14.97,US,1616109354
Carnarvon,-24.8667,113.6333,68.0,73,0,9.22,AU,1616109500
Faanui,-16.4833,-151.75,82.26,67,14,5.97,PF,1616109501
Bathsheba,13.2167,-59.5167,77.0,65,40,12.66,BB,1616109501
Hasaki,35.7333,140.8333,53.6,76,75,11.5,JP,1616109501
Lompoc,34.6391,-120.4579,61.0,59,1,14.97,US,1616109469
Grand-Santi,4.25,-54.3833,72.99,88,81,3.27,GF,1616109502
General Pico,-35.6566,-63.7568,57.09,51,68,4.59,AR,1616109502
Oiã,40.5426,-8.5386,50.0,79,54,4.54,PT,1616109502
Den Helder,52.9599,4.7593,39.99,75,20,19.57,NL,1616109502
Abadan,38.0507,58.2056,69.8,40,75,6.91,TM,1616109503
Mădulari,45.0333,24.0,33.76,97,100,4.79,RO,1616109503
Kutum,14.2,24.6667,73.89,20,69,15.14,SD,1616109503
Viesca,25.35,-102.8,82.4,14,1,17.81,MX,1616109504
Jaltenango,15.8719,-92.7247,78.22,66,85,2.06,MX,1616109504
Barabai,-2.5833,115.3833,75.36,96,89,0.63,ID,1616109504
Mahajanga,-15.7167,46.3167,75.2,94,75,6.91,MG,1616109504
Ostrovnoy,68.0531,39.5131,13.75,79,99,9.1,RU,1616109505
Turan,16.0678,108.2208,73.4,94,20,3.44,VN,1616109505
Nyimba,-14.5566,30.8149,65.16,87,14,3.4,ZM,1616109505
Semnan,35.5729,53.3971,55.33,44,2,2.21,IR,1616109506
Bowen,-20.0167,148.2333,77.0,88,90,6.91,AU,1616109377
Carupano,10.6678,-63.2585,74.79,88,91,9.46,VE,1616109506
Anadyr,64.75,177.4833,-14.01,69,0,6.71,RU,1616109506
Jiwani,25.05,61.7417,74.89,70,0,4.7,PK,1616109507
Mount Gambier,-37.8333,140.7667,64.4,82,0,6.91,AU,1616109507
Kuusamo,65.9667,29.1833,10.4,85,20,6.91,FI,1616109507
Kostanay,53.1667,63.5833,23.0,74,0,15.66,KZ,1616109508
Pascagoula,30.3658,-88.5561,68.0,42,1,10.36,US,1616109408
Mayo,38.8876,-76.5119,52.0,100,90,5.75,US,1616109415
Elk City,35.412,-99.4043,50.0,50,1,16.11,US,1616109215
Kavaratti,10.5669,72.642,82.8,70,17,7.4,IN,1616109508
Grand Gaube,-20.0064,57.6608,73.99,76,8,3.0,MU,1616109509
Torbay,47.6666,-52.7314,35.01,80,90,13.8,CA,1616109509
Spring Hill,28.4769,-82.5255,73.4,88,90,11.5,US,1616109509
Guantánamo,20.1444,-75.2092,80.6,69,20,14.97,CU,1616109364
Tuatapere,-46.1333,167.6833,55.99,92,91,1.99,NZ,1616109510
Yerbogachën,61.2767,108.0108,14.72,92,98,9.98,RU,1616109510
Chenghai,23.4632,116.768,66.2,94,90,2.24,CN,1616109510
Botngård,63.7653,9.8111,37.0,93,40,5.75,NO,1616109510
Mount Isa,-20.7333,139.5,82.4,30,48,13.8,AU,1616109511
Güicán,6.4618,-72.4113,51.58,91,90,0.96,CO,1616109366
Mlowo,-9.0,32.9833,58.89,88,73,2.66,TZ,1616109511
Fairbanks,64.8378,-147.7164,12.99,61,75,3.44,US,1616109291
Bodden Town,19.2833,-81.25,82.4,69,20,9.22,KY,1616109512
Verāval,20.9,70.3667,73.17,81,0,10.09,IN,1616109512
Qaqortoq,60.7167,-46.0333,28.4,50,90,4.61,GL,1616109512
Dikson,73.5069,80.5464,-22.4,99,98,6.62,RU,1616109512
Acapulco de Juárez,16.8634,-99.8901,82.4,69,20,9.22,MX,1616109513
Ewo,-0.8725,14.8206,74.39,83,61,3.74,CG,1616109513
Miraflores,19.2167,-98.8083,73.0,23,75,8.05,MX,1616109513
Amapá,1.0,-52.0,74.19,88,57,2.64,BR,1616109514
Dingle,10.9995,122.6711,78.69,89,41,6.85,PH,1616109514
Sabang,5.8933,95.3214,82.33,69,32,6.4,ID,1616109514
Atar,20.5169,-13.0499,76.06,10,0,7.11,MR,1616109388
Manadhoo,5.7667,73.3833,82.38,71,72,6.53,MV,1616109515
Kortkeros,61.8106,51.5806,23.0,100,20,1.19,RU,1616109515
Hartford,41.7668,-72.7662,43.0,94,100,1.99,US,1616109455
San Policarpo,12.1791,125.5072,81.59,79,32,5.06,PH,1616109515
Bonthe,7.5264,-12.505,78.06,77,0,5.91,SL,1616109516
Coyhaique,-45.5752,-72.0662,60.8,44,0,3.44,CL,1616109516
Souillac,-20.5167,57.5167,73.4,83,20,8.79,MU,1616109516
Lebu,-37.6167,-73.65,56.77,83,14,4.36,CL,1616109517
Poya,-21.35,165.15,80.83,72,82,7.9,NC,1616109517
Saint-Philippe,-21.3585,55.7679,75.2,73,0,4.61,RE,1616109517
Kangaatsiaq,68.3065,-53.4641,8.55,89,100,8.08,GL,1616109517
Caravelas,-17.7125,-39.2481,77.05,83,5,5.77,BR,1616109518
Quelimane,-17.8786,36.8883,78.8,89,20,0.25,MZ,1616109518
Bambous Virieux,-20.3428,57.7575,73.99,83,20,11.12,MU,1616109518
Moyale,3.5167,39.0584,71.83,65,71,3.36,KE,1616109519
Byron Bay,-28.65,153.6167,73.4,83,90,10.36,AU,1616109519
Kerema,-7.9631,145.7785,83.23,68,96,5.48,PG,1616109519
Wajima,37.4,136.9,45.41,56,97,10.16,JP,1616109290
Tselinnoye,53.0833,85.6667,7.84,96,89,5.19,RU,1616109520
Sabha,27.0377,14.4283,69.96,18,58,24.76,LY,1616109520
Airai,-8.9266,125.4092,63.9,82,100,0.94,TL,1616109520
Sokoni,-6.4333,39.55,82.36,75,39,6.17,TZ,1616109521
Tegul'det,57.3064,88.1667,12.65,95,97,7.23,RU,1616109521
Flin Flon,54.7682,-101.865,44.6,39,75,10.36,CA,1616109521
Oudtshoorn,-33.5907,22.2014,64.4,94,90,6.91,ZA,1616109521
Manicoré,-5.8092,-61.3003,72.43,98,100,3.67,BR,1616109522
Bayjī,34.9311,43.487,57.11,40,10,3.91,IQ,1616109522
Buala,-8.145,159.5921,85.12,64,75,2.46,SB,1616109522
Leningradskiy,69.3833,178.4167,-14.98,83,0,2.68,RU,1616109523
Bayan,46.0833,127.4,29.07,58,100,2.17,CN,1616109523
Lorengau,-2.0226,147.2712,84.65,68,63,4.43,PG,1616109523
Weiser,44.251,-116.9693,71.6,18,40,12.66,US,1616109524
Yulara,-25.2406,130.9889,73.4,33,100,9.22,AU,1616109524
Luanda,-8.8368,13.2343,80.6,83,40,9.22,AO,1616109249
Aykhal,66.0,111.5,8.1,92,96,20.62,RU,1616109524
Safi,32.2994,-9.2372,60.4,85,63,4.68,MA,1616109524
Maragogi,-9.0122,-35.2225,79.11,79,76,6.87,BR,1616109525
Ozorków,51.9634,19.2914,28.99,97,90,4.43,PL,1616109525
Ust'-Kut,56.7938,105.7672,10.72,96,95,3.51,RU,1616109525
Omsukchan,62.5333,155.8,-8.09,93,32,5.68,RU,1616109526
Kununurra,-15.7667,128.7333,78.8,100,40,1.14,AU,1616109247
Ayr,55.4627,-4.6339,45.0,100,36,5.75,GB,1616109526
Paamiut,61.994,-49.6678,21.56,68,96,16.4,GL,1616109526
Touros,-5.1989,-35.4608,77.0,88,0,16.11,BR,1616109527
Kāranja,20.4833,77.4833,79.39,35,52,6.93,IN,1616109527
Port-Gentil,-0.7193,8.7815,79.56,79,100,3.83,GA,1616109527
São Filipe,14.8961,-24.4956,71.24,80,8,5.75,CV,1616109527
Padang,-0.9492,100.3543,75.2,94,75,2.3,ID,1616109528
Bashmakovo,53.2133,43.0342,16.05,93,67,3.09,RU,1616109528
Truro,50.2653,-5.0544,48.2,93,75,12.66,GB,1616109528
Nyurba,63.2842,118.3319,10.92,93,97,10.31,RU,1616109529
Santa Rosa,14.3122,121.1114,84.0,78,40,1.14,PH,1616109529
Severnyy,50.677,36.5532,28.4,93,0,4.47,RU,1616109529
College,64.8569,-147.8028,14.0,61,75,3.44,US,1616109530
Gardner,42.5751,-71.9981,41.0,97,100,1.01,US,1616109530
Petropavlovka,50.6114,105.3196,4.6,77,7,2.95,RU,1616109530
Tiznit Province,29.5833,-9.5,53.31,77,84,6.02,MA,1616109530
Necochea,-38.5473,-58.7368,54.0,74,52,3.78,AR,1616109531
Malinovskiy,61.1953,62.8397,22.6,96,100,5.55,RU,1616109531
Sistranda,63.7256,8.834,35.6,93,40,5.75,NO,1616109531
Kunštát,49.5065,16.5172,33.01,78,78,0.89,CZ,1616109436
Mareeba,-17.0,145.4333,82.99,74,75,3.44,AU,1616109532
Natal,-5.795,-35.2094,80.6,78,20,10.36,BR,1616109532
Maryville,35.7565,-83.9705,59.0,58,90,17.27,US,1616109532
Bethel,41.3712,-73.414,43.0,95,100,4.0,US,1616109532
Calvinia,-31.4707,19.776,57.42,68,0,4.03,ZA,1616109533
Raudeberg,61.9875,5.1352,37.99,95,0,7.29,NO,1616109533
Barra do Garças,-15.89,-52.2567,73.0,94,99,4.25,BR,1616109533
Bijni,26.4959,90.703,66.22,40,0,2.59,IN,1616109534
Diffa,13.3154,12.6113,84.0,13,51,7.23,NE,1616109534
Ruwi,23.5996,58.5507,77.0,33,0,2.3,OM,1616109534
Tateyama,34.9833,139.8667,59.0,47,89,5.01,JP,1616109534
Plettenberg Bay,-34.0527,23.3716,65.73,86,12,10.18,ZA,1616109535
Bougouni,11.417,-7.479,88.5,21,92,0.49,ML,1616109535
Hambantota,6.1241,81.1185,77.47,79,99,7.9,LK,1616109535
Kahului,20.8947,-156.47,75.2,83,75,20.71,US,1616109536
Mehamn,71.0357,27.8492,17.6,67,20,16.11,NO,1616109536
Córdoba,-31.4135,-64.1811,63.0,82,75,4.61,AR,1616109536
Broken Hill,-31.95,141.4333,68.0,73,75,16.11,AU,1616109536
Gagnoa,6.1293,-5.9437,73.2,93,100,3.24,CI,1616109537
Laguna,38.421,-121.4238,55.99,88,90,4.61,US,1616109537
San Cristobal,7.7669,-72.225,80.6,74,40,5.75,VE,1616109537
Pringsewu,-5.3582,104.9744,71.98,94,75,2.48,ID,1616109538
Termez,37.2242,67.2783,60.8,33,0,11.5,UZ,1616109538
Geraldton,-28.7667,114.6,71.6,33,3,6.91,AU,1616109538
São Pedro do Piauí,-5.9294,-42.7186,72.72,94,81,1.99,BR,1616109539
Panguna,-6.3164,155.4848,79.54,70,58,2.24,PG,1616109539
Kodinsk,58.6881,99.1844,14.52,96,99,5.64,RU,1616109539
Saint-Louis,16.3333,-15.0,74.66,29,0,13.85,SN,1616109539
Bedelē,8.456,36.353,58.35,90,67,2.64,ET,1616109540
Intipucá,13.1969,-88.0544,95.0,41,40,2.3,SV,1616109540
Ojinaga,29.5667,-104.4167,75.2,12,1,11.5,MX,1616109540
Dnestrovsc,46.6222,29.9133,39.2,81,75,8.95,MD,1616109541
Makakilo City,21.3469,-158.0858,75.2,64,90,11.5,US,1616109541
Pacific Grove,36.6177,-121.9166,57.0,94,90,4.61,US,1616109541
Tambovka,50.0969,128.0489,17.6,73,0,2.24,RU,1616109541
Visby,57.6409,18.296,30.2,59,20,12.66,SE,1616109542
Lębork,54.5392,17.7501,34.0,86,75,4.61,PL,1616109542
Charcas,23.1333,-101.1167,64.63,29,0,21.27,MX,1616109542
Cascais,38.6979,-9.4215,59.0,50,2,11.18,PT,1616109543
Beira,-19.8436,34.8389,77.0,94,20,3.44,MZ,1616109543
Teya,60.3778,92.6267,13.51,94,100,6.15,RU,1616109543
Tsaratanana,-16.7833,47.65,72.32,91,100,4.92,MG,1616109543
Yuancheng,36.652,107.7896,43.09,89,100,6.33,CN,1616109544
Tyret’ Pervaya,53.6703,102.3106,6.67,93,86,1.95,RU,1616109544
Meulaboh,4.1363,96.1285,76.28,88,93,4.83,ID,1616109544
Gravdal,68.1214,13.5031,31.05,55,100,19.57,NO,1616109544
Tambura,5.6,27.4667,72.07,82,100,4.83,SS,1616109545
Obala,4.1667,11.5333,71.6,100,75,2.3,CM,1616109545
Galabovo,42.139,25.8673,42.8,100,90,3.36,BG,1616109545
Tadine,-21.55,167.8833,79.25,69,81,14.38,NC,1616109546
Palora,-1.7,-77.9333,77.0,69,75,0.81,EC,1616109546
León,21.1167,-101.6667,77.0,22,40,5.75,MX,1616109453
Walvis Bay,-22.9575,14.5053,63.0,77,24,3.44,NA,1616109546
Ţaga,46.95,24.05,34.0,93,90,4.61,RO,1616109547
Wilmington,34.2257,-77.9447,71.6,73,40,17.27,US,1616109307
Baní,18.2833,-70.3333,79.0,73,1,4.0,DO,1616109547
Itinga,-16.6131,-41.7653,72.52,89,63,4.85,BR,1616109547
Kyren,51.6828,102.1408,10.76,87,80,1.36,RU,1616109548
Pokhara,28.2333,83.9833,65.77,23,94,6.51,NP,1616109302
Klaksvík,62.2266,-6.589,44.6,100,75,13.8,FO,1616109548
Tazovsky,67.4667,78.7,-10.8,98,100,8.7,RU,1616109548
Ust'-Omchug,61.15,149.6333,-6.52,84,0,5.68,RU,1616109549
Yenagoa,4.9247,6.2642,77.27,88,100,3.56,NG,1616109544
Ixtapa,20.7,-105.2,73.4,56,1,10.36,MX,1616109549
Nhulunbuy,-12.2333,136.7667,77.0,100,96,11.5,AU,1616109549
Nuuk,64.1835,-51.7216,24.8,54,75,13.8,GL,1616109550
Inuvik,68.3499,-133.7218,-2.2,71,49,8.05,CA,1616109550
Monte Carmelo,-18.7247,-47.4986,68.29,84,100,3.04,BR,1616109550
Szydłowiec,51.2282,20.8611,28.99,83,0,1.99,PL,1616109551
Bobo-Dioulasso,11.1771,-4.2979,84.2,37,0,4.12,BF,1616109551
Altamira,-3.2033,-52.2064,74.62,93,100,2.48,BR,1616109551
Pangody,65.85,74.4859,9.68,95,100,4.56,RU,1616109552
Elko,41.0002,-115.5012,62.6,20,20,9.22,US,1616109552
Ystad,55.4297,13.8204,32.0,80,0,9.22,SE,1616109552
Tacuarembó,-31.7333,-55.9833,63.81,47,0,6.76,UY,1616109552
Lander,42.833,-108.7307,50.0,49,1,4.61,US,1616109553
Cortez,37.3489,-108.5859,57.2,30,1,6.91,US,1616109311
Cayenne,4.9333,-52.3333,79.0,73,20,4.61,GF,1616109553
Tocopilla,-22.092,-70.1979,69.3,76,100,9.93,CL,1616109553
Bay Roberts,47.5999,-53.2648,35.01,84,86,1.99,CA,1616109554
Morro Bay,35.3658,-120.8499,61.0,79,28,4.0,US,1616109554
Yeppoon,-23.1333,150.7333,78.8,69,100,13.8,AU,1616109554
Takaka,-40.85,172.8,64.0,71,1,3.0,NZ,1616109554
Benguela,-12.5763,13.4055,78.48,82,100,6.26,AO,1616109555
Podporozh'ye,60.9112,34.1706,6.17,95,50,4.05,RU,1616109555
Port Lincoln,-34.7333,135.8667,70.09,69,0,12.68,AU,1616109541
Grindavik,63.8424,-22.4338,44.6,100,90,18.41,IS,1616109555
Rocha,-34.4833,-54.3333,56.59,76,55,5.86,UY,1616109326
Havelock,34.8791,-76.9013,71.01,94,90,13.8,US,1616109556
Beringovskiy,63.05,179.3167,-9.87,93,4,6.33,RU,1616109556
Beloha,-25.1667,45.05,73.22,89,0,6.69,MG,1616109556
Severodvinsk,64.5635,39.8302,5.0,85,0,6.71,RU,1616109557
Grand Forks,47.9417,-97.4337,54.0,28,1,9.22,US,1616109334
Fonte Boa,-2.4959,-66.2662,75.88,96,47,3.53,BR,1616109557
Gamba,-2.65,10.0,77.83,81,100,3.96,GA,1616109557
Smolenka,52.1352,113.4974,17.6,93,75,1.45,RU,1616109558
Verkhnyaya Inta,65.9811,60.3094,13.78,95,100,8.43,RU,1616109558
Lucan,53.3592,-6.4389,50.0,87,75,9.22,IE,1616109558
Luxor,25.6989,32.6421,64.4,42,0,4.94,EG,1616109559
Havre-St-Pierre,50.2334,-63.5986,30.2,100,90,19.57,CA,1616109559
Kushima,31.4583,131.2333,62.6,77,75,5.75,JP,1616109559
Longyearbyen,78.2186,15.6401,30.2,93,90,20.71,SJ,1616109559
Port Said,31.2565,32.2841,60.8,67,0,8.05,EG,1616109560
Philadelphia,39.9523,-75.1638,46.4,93,90,11.5,US,1616109457
Kahramanmaraş Province,38.0,37.0,42.8,100,75,4.61,TR,1616109560
Tucumã,-0.1833,-50.05,76.71,86,100,7.07,BR,1616109560
Vao,-22.6667,167.4833,76.78,72,69,18.72,NC,1616109561
Soe,-9.8607,124.284,68.61,86,100,2.62,ID,1616109561
Kushiro,42.975,144.3747,33.8,51,40,9.22,JP,1616109561
Eqbālīyeh,35.3022,51.5358,60.8,40,20,11.5,IR,1616109562
Belmonte,-15.8631,-38.8828,78.8,78,0,4.61,BR,1616109562
San Miguel de Tucumán,-26.8241,-65.2226,62.6,94,90,8.05,AR,1616109438
Bentong,3.5181,101.9079,79.0,94,20,0.87,MY,1616109562
Tobol,52.6844,62.5794,24.67,90,100,16.35,KZ,1616109563
Linjiang,41.8069,126.9078,33.33,61,0,1.34,CN,1616109563
Sheridan,44.8333,-106.9173,54.0,40,1,11.5,US,1616109411
Isangel,-19.55,169.2667,84.2,70,75,17.27,VU,1616109563
Dalnegorsk,44.5604,135.5701,27.21,71,20,5.77,RU,1616109564
Winslow,35.0242,-110.6974,68.0,13,1,8.05,US,1616109564
Clyde River,70.4692,-68.5914,-14.8,76,1,4.61,CA,1616109564
Zhezkazgan,47.8043,67.7144,19.53,72,74,17.76,KZ,1616109564
Saint-François,46.4154,3.9054,34.0,93,0,3.83,FR,1616109565
Temozon,20.8,-88.2167,83.17,63,85,5.61,MX,1616109565
Umiray,15.2206,121.4111,79.7,83,62,1.95,PH,1616109565
Gijang,35.2442,129.2139,53.6,58,0,10.36,KR,1616109566
Mikkeli,61.6886,27.2723,19.4,79,90,7.23,FI,1616109566
Elverum,60.8819,11.5623,26.11,95,59,3.94,NO,1616109566
Jutaí,-5.1833,-68.9,77.74,90,57,2.71,BR,1616109567
Basoko,1.2391,23.616,73.13,73,81,1.1,CD,1616109567
Brasiléia,-11.0161,-68.7481,75.2,94,75,11.5,BR,1616109567
Northampton,40.8754,-75.2499,44.01,94,100,11.03,US,1616109567
Fuling,29.7022,107.3919,63.7,89,89,1.45,CN,1616109568
Carlsbad,33.1581,-117.3506,64.99,72,1,12.66,US,1616109568
Dubbo,-32.25,148.6167,73.4,64,75,16.11,AU,1616109568
Townsville,-19.25,146.8,82.4,78,40,8.05,AU,1616109569
Cabedelo,-6.9811,-34.8339,78.8,89,0,4.61,BR,1616109569
Palmer,42.1584,-72.3287,41.0,100,90,9.22,US,1616109569
Lüderitz,-26.6481,15.1594,63.72,69,0,16.08,NA,1616109569
Saint Anthony,45.0205,-93.218,51.8,30,1,8.05,US,1616109570
Potenza,40.6443,15.8086,30.0,81,54,1.01,IT,1616109570
El Reno,35.5323,-97.955,50.0,53,40,20.71,US,1616109570
Vila,42.0304,-8.1588,44.01,74,50,8.99,PT,1616109571
Eyl,7.9803,49.8164,79.41,74,49,12.64,SO,1616109571
Talladega,33.4359,-86.1058,53.6,66,99,13.8,US,1616109571
Banjar,-8.19,114.9675,82.4,83,40,11.5,ID,1616109572
Mundo Nuevo (Ojo de Agua),18.7,-95.5,74.35,75,73,27.89,MX,1616109572
Tawang Town,27.5833,91.8667,39.0,61,2,4.25,IN,1616109572
Broome,42.2506,-75.833,39.0,93,90,16.11,US,1616109572
Muhafazat Lahij,13.1667,44.5833,70.25,54,49,4.47,YE,1616109573
Bodmin,50.4715,-4.7243,48.2,93,75,12.66,GB,1616109498
Trélazé,47.45,-0.4667,46.0,81,90,4.61,FR,1616109573
Umm Kaddadah,13.6017,26.6876,82.09,17,100,17.02,SD,1616109573
Ken Caryl,39.5773,-105.1169,50.0,36,9,3.0,US,1616109574
Leh,34.1667,77.5833,19.63,61,57,1.43,IN,1616109574
Visaginas,55.6,26.4167,28.09,79,82,0.94,LT,1616109574
Shenjiamen,29.9576,122.298,53.92,94,98,5.48,CN,1616109575
Gambēla,8.25,34.5833,79.38,60,100,3.69,ET,1616109575
Port Hardy,50.6996,-127.4199,48.2,76,75,8.05,CA,1616109575
Karasburg,-28.0167,18.75,63.46,39,0,5.26,NA,1616109576
Dryden,49.7833,-92.7503,46.4,23,1,4.61,CA,1616109576
Eureka,40.8021,-124.1637,55.99,67,93,8.01,US,1616109576
Juneau,58.3019,-134.4197,39.99,45,75,6.91,US,1616109576
San Clemente,33.427,-117.612,66.99,73,0,1.01,US,1616109312
Puerto Baquerizo Moreno,-0.9,-89.6,80.6,89,75,2.3,EC,1616109577
Vavoua,7.3819,-6.4778,73.26,82,65,5.75,CI,1616109577
Yazoo City,32.8551,-90.4056,55.4,62,90,10.36,US,1616109578
Visnes,59.3556,5.2242,41.0,87,75,5.75,NO,1616109578
Kargil,34.5667,76.1,13.91,67,100,1.63,IN,1616109578
Kattivākkam,13.2167,80.3167,73.4,83,20,2.3,IN,1616109578
Auce,56.4598,22.9017,24.8,93,75,3.44,LV,1616109579
Xishan,27.6667,113.5,50.0,100,75,13.42,CN,1616109579
Sovetskaya Gavan',48.9723,140.2878,27.07,64,100,5.44,RU,1616109579
Santiago de Cao,-7.9589,-79.2392,73.4,83,75,8.05,PE,1616109580
Okhotsk,59.3833,143.3,6.3,66,0,22.82,RU,1616109580
Westport,41.1415,-73.3579,44.6,93,90,9.22,US,1616109580
Kirakira,-10.4544,161.9205,83.62,77,89,4.65,SB,1616109580
Peniche,39.3558,-9.3811,54.0,68,5,1.01,PT,1616109581
Asău,46.4333,26.4,32.0,64,100,1.86,RO,1616109581
Takoradze,4.8845,-1.7554,78.1,83,90,7.2,GH,1616109581
Nealtican,19.05,-98.4167,71.6,26,40,8.05,MX,1616109582
Kandrian,-6.2167,149.55,79.92,84,98,5.53,PG,1616109582
Artyom,40.4723,50.333,39.2,93,0,6.91,AZ,1616109582
Mariveles,14.4833,120.4833,82.4,78,40,4.61,PH,1616109582
Salinas,36.6777,-121.6555,57.0,88,90,6.91,US,1616109331
Richards Bay,-28.783,32.0377,71.6,95,13,4.94,ZA,1616109583
Ndélé,8.4109,20.6473,76.57,60,98,2.66,CF,1616109583
Zhigansk,66.7697,123.3711,-4.43,97,100,24.99,RU,1616109583
Puerto Maldonado,-12.6,-69.1833,72.63,96,100,7.29,PE,1616109584
Ouadda,8.0777,22.4007,71.2,74,95,3.44,CF,1616109584
San Juan,-31.5375,-68.5364,63.48,62,84,10.96,AR,1616109584
Cockburn Town,21.4612,-71.1419,75.02,73,11,16.91,TC,1616109585
Vostok,46.4856,135.8833,21.31,91,91,1.63,RU,1616109585
Arawa,-6.2132,155.5367,84.61,73,54,1.66,PG,1616109585
Barentu,15.1139,37.5928,65.98,61,36,3.18,ER,1616109585
Galveston,29.3669,-94.9669,69.8,32,1,20.71,US,1616109586
Sierra Vista,31.5545,-110.3037,73.99,4,1,4.61,US,1616109411
Yinzhu,35.8786,119.9753,43.0,70,100,4.47,CN,1616109586
Río Gallegos,-51.6226,-69.2181,59.0,44,0,17.27,AR,1616109586
Benito Juarez,19.385,-99.165,73.0,23,75,8.05,MX,1616109587
Lakatoro,-16.0999,167.4164,83.1,74,82,11.61,VU,1616109587
Çeşme,38.3228,26.3064,51.8,54,75,9.22,TR,1616109587
Sunrise Manor,36.2111,-115.0731,73.0,17,1,1.77,US,1616109329
Solnechnyy,50.7214,136.6319,22.01,79,100,3.29,RU,1616109588
